{
  "mountains": {
    "type": "FeatureCollection",
    "features": [
      {
        "type": "Feature",
        "geometry": {
          "type": "Point",
          "coordinates":  [ 8.005382, 46.577555 ]
        },
        "properties": {
          "id": "eig",
          "name": "Eiger",
          "el": 3967,
          "url": "",
          "img": "eiger.jpg",
          "mountainrailway": false
        }
      },
      {
        "type": "Feature",
        "geometry": {
          "type": "Point",
          "coordinates": [ 9.020156, 45.931455 ]
        },
        "properties": {
          "id": "mge",
          "name": "Monte Generoso",
          "el": 1701,
          "url": "",
          "img": "generoso.jpg",
          "mountainrailway": true
        }
      },
      {
        "type": "Feature",
        "geometry": {
          "type": "Point",
          "coordinates":  [ 7.658434, 45.976653 ]
        },
        "properties": {
          "id": "mat",
          "name": "Matterhorn",
          "el": 4477,
          "url": "",
          "img": "matterhorn.jpg",
          "mountainrailway": false
        }
      },
      {
        "type": "Feature",
        "geometry": {
          "type": "Point",
          "coordinates":  [ 8.681283, 46.73697 ]
        },
        "properties": {
          "id": "bri",
          "name": "Bristen",
          "el": 3073,
          "url": "",
          "img": "bristen.jpg",
          "mountainrailway": false
        }
      },
      {
        "type": "Feature",
        "geometry": {
          "type": "Point",
          "coordinates":  [ 7.775339, 46.711302 ]
        },
        "properties": {
          "id": "nie",
          "name": "Niederhorn",
          "el": 1963,
          "url": "",
          "img": "niederhorn.jpg",
          "mountainrailway": true
        }
      },
      {
        "type": "Feature",
        "geometry": {
          "type": "Point",
          "coordinates":  [ 9.908117, 46.382328 ]
        },
        "properties": {
          "id": "pbe",
          "name": "Piz Bernina",
          "el": 4049,
          "url": "",
          "img": "pizbernina.jpg",
          "mountainrailway": false
        }
      },
      {
        "type": "Feature",
        "geometry": {
          "type": "Point",
          "coordinates":  [ 8.485215, 47.056731 ]
        },
        "properties": {
          "id": "rig",
          "name": "Rigi",
          "el": 1798,
          "url": "",
          "img": "rigi.jpg",
          "mountainrailway": true
        }
      },
      {
        "type": "Feature",
        "geometry": {
          "type": "Point",
          "coordinates":  [ 9.343259, 47.249403 ]
        },
        "properties": {
          "id": "san",
          "name": "Säntis",
          "el": 2502,
          "url": "",
          "img": "santis.jpg",
          "mountainrailway": true
        }
      },
      {
        "type": "Feature",
        "geometry": {
          "type": "Point",
          "coordinates":  [ 8.437769, 46.772067 ]
        },
        "properties": {
          "id": "tit",
          "name": "Titlis",
          "el": 3238,
          "url": "",
          "img": "titlis.jpg",
          "mountainrailway": true
        }
      },
      {
        "type": "Feature",
        "geometry": {
          "type": "Point",
          "coordinates":  [ 8.914868, 46.811151 ]
        },
        "properties": {
          "id": "tod",
          "name": "Tödi",
          "el": 3614,
          "url": "",
          "img": "todi.jpg",
          "mountainrailway": false
        }
      },
      {
        "type": "Feature",
        "geometry": {
          "type": "Point",
          "coordinates":  [ 9.221249, 46.898255 ]
        },
        "properties": {
          "id": "tsh",
          "name": "Tschingelhörner",
          "el": 2849,
          "url": "",
          "img": "tschingelhorner.jpg",
          "mountainrailway": false
        }
      },
      {
        "type": "Feature",
        "geometry": {
          "type": "Point",
          "coordinates":  [ 8.49205, 47.349499 ]
        },
        "properties": {
          "id": "uet",
          "name": "Uetliberg",
          "el": 870,
          "url": "",
          "img": "uetliberg.jpg",
          "mountainrailway": true
        }
      },
      {
        "type": "Feature",
        "geometry": {
        "type": "Point",
        "coordinates":  [ 8.988836, 46.992828 ]
        },
        "properties": {
          "id": "gla",
          "name": "foo foo",
          "el": 2914,
          "url": "",
          "img": "glarnisch.jpg",
          "mountainrailway": true
        }
      }
    ]
  }
}